City,Score_ex_access,Area Classification,Access Score,Access_Score_Rank 2,Rank 2.1,Access_Score_Rank_3,Rank 3.1,Final_Score_Rank_v2,Score Rank 2.1-back-up,Final_Score_Rank_v3,Rank 3.1,OADR Score,Compettion,Rigions,latitude,longitude,Population,Homecare_Spending,HC_Payments_20/21,HC_Payments_21/22,2016,2017,2018,2019,2020,2021,2022,2023,2024,2025,2026,2027,2028,2029,2030
Rutland,67%,English and Welsh Countryside,1,28%,26%,30%,20%,48%,47%,49%,44%,464.61,11,East Midlands,52.6705,-0.7333,10975,"£1,404.83",£17.20,£17.54,438.07,440.90,439.78,436.81,432.04,436.43,445.77,455.32,464.61,475.32,481.79,474.66,473.19,485.42,495.61
Lincolnshire,60%,Remoter Coastal Living,1,62%,48%,60%,40%,61%,54%,60%,50%,403.53,122,East Midlands,52.974,-0.0214,64600,"£21,919.00",£16.63,£17.03,409.96,404.54,399.93,390.62,382.12,384.89,390.37,396.68,403.53,410.40,412.73,403.83,399.89,408.57,417.87
Derbyshire,55%,Town Living,4,63%,65%,80%,70%,59%,60%,68%,63%,364.81,139,East Midlands,52.971,-1.309,38640,"£36,180.00",£16.00,£16.08,365.69,361.35,358.26,350.47,343.08,345.58,351.55,357.78,364.81,372.46,375.18,367.79,364.73,373.18,383.12
Corby,53%,Suburban Traits,2,33%,39%,40%,40%,43%,46%,46%,46%,343.06,130,East Midlands,52.971,-1.309,#N/A,"£9,610.00",£16.00,£17.40,358.34,353.77,350.20,342.23,334.71,336.99,342.10,347.62,353.94,361.00,363.67,356.33,353.16,361.14,370.30
Daventry,53%,Suburban Traits,2,33%,39%,40%,40%,43%,46%,46%,46%,343.06,153,East Midlands,52.2578,-1.1628,28123,"£11,540.00",£16.00,£17.84,351.84,347.67,344.32,336.49,329.10,331.25,336.32,341.45,347.41,353.91,356.23,349.03,346.05,353.77,362.27
Nottinghamshire,53%,Town Living,4,63%,65%,80%,70%,58%,59%,66%,61%,343.06,170,East Midlands,53.125,-1.261,48527,"£23,353.99",£18.93,£18.56,350.99,346.19,342.15,334.00,326.35,328.40,332.65,337.46,343.06,349.54,352.16,344.87,341.59,349.10,357.47
Leicestershire,52%,Town Living,4,63%,65%,80%,70%,58%,59%,66%,61%,340.88,139,East Midlands,52.77,-1.2,59932,"£9,668.00",£19.10,£19.48,345.34,341.58,338.44,330.76,323.49,325.52,330.55,335.27,340.88,346.83,348.79,341.73,338.93,346.41,354.24
Derby,43%,Manufacturing Traits,4,64%,74%,80%,80%,53%,58%,61%,61%,258.06,106,East Midlands,52.9217,-1.4767,255394,"£12,119.00",£18.31,£16.00,271.70,266.23,261.71,254.76,248.29,248.19,251.59,254.64,258.06,262.03,262.96,257.61,255.10,261.11,266.94
Leicester,33%,Ethnically Diverse Metropolitan Living,4,3%,4%,20%,20%,18%,19%,27%,27%,184.27,171,East Midlands,52.6344,-1.1319,508916,"£13,470.10",£16.42,£16.82,187.81,184.20,181.27,176.56,172.41,174.06,177.51,180.77,184.27,187.86,189.49,185.65,183.97,187.46,191.08
Nottingham,32%,University Towns and Cities,4,6%,9%,20%,20%,19%,20%,26%,26%,167.45,118,East Midlands,52.9533,-1.15,768638,"£9,656.00",£16.41,£17.00,176.51,171.96,168.64,163.83,159.80,160.86,162.67,164.90,167.45,169.76,170.31,166.05,163.84,167.08,170.56
Norfolk,61%,Remoter Coastal Living,1,62%,48%,60%,40%,62%,55%,61%,51%,416.00,145,East of England,52.6286,1.2928,213166,"£26,228.22",£19.08,£19.68,430.61,423.90,418.03,407.95,398.56,400.33,405.48,410.87,416.00,421.81,423.06,413.58,408.97,416.67,424.94
Suffolk,61%,Rural-Urban Fringe,3,17%,17%,20%,20%,39%,39%,40%,40%,410.01,199,East of England,52.48,1.75,70945,"£29,874.25",£18.99,£19.72,407.30,403.69,400.60,392.84,385.28,388.38,394.68,402.09,410.01,417.73,420.54,412.85,410.33,419.52,429.70
Essex,53%,Town Living,4,63%,65%,80%,70%,58%,59%,66%,61%,342.03,391,East of England,51.58,0.49,185900,"£47,940.00",£16.45,£16.45,355.17,349.28,344.34,335.58,327.33,328.52,332.57,337.03,342.03,347.12,348.41,340.95,337.35,343.94,350.98
Cambridgeshire,49%,University Towns and Cities,4,6%,9%,20%,20%,28%,29%,35%,35%,315.70,125,East of England,52.2053,0.1192,123867,"£17,200.00",£18.00,£19.80,311.44,308.85,306.38,300.46,295.16,298.35,303.88,309.44,315.70,321.50,324.04,318.18,315.86,322.89,330.61
Southend-on-Sea,49%,Manufacturing Traits,4,64%,74%,80%,80%,57%,62%,65%,65%,315.13,62,East of England,51.5425,0.6535,20737,"£5,305.43",£17.60,£18.82,329.83,325.01,320.38,312.20,304.56,304.89,307.59,310.57,315.13,319.96,322.16,316.12,313.81,320.56,327.64
Central Bedfordshire,46%,Thriving Rural,3,25%,30%,30%,20%,36%,38%,38%,33%,290.51,56,East of England,51.9165,-0.6617,37469,"£14,050.43",£22.20,£22.33,298.16,292.89,288.82,281.50,274.95,276.64,280.37,285.36,290.51,296.35,298.52,292.45,290.04,297.05,304.68
Bedford,46%,Suburban Traits,2,33%,39%,40%,40%,40%,43%,43%,43%,289.85,64,East of England,51.9165,-0.6617,100934,"£8,203.68",£17.31,£17.31,296.77,291.88,288.10,280.80,274.17,276.25,280.49,285.08,289.85,295.54,296.87,290.99,288.44,295.34,302.61
Hertfordshire,44%,Thriving Rural,3,25%,30%,30%,20%,35%,37%,37%,32%,274.49,282,East of England,51.7526,-0.4692,94932,"£32,095.00",£25.00,£17.31,283.50,278.65,274.67,267.83,261.36,262.64,266.08,270.15,274.49,279.39,280.94,275.46,273.18,279.48,286.30
Peterborough,40%,Suburban Traits,2,33%,39%,40%,40%,37%,40%,40%,40%,240.69,86,East of England,51.7526,-0.4692,197864,"£6,650.00",£16.01,£16.15,246.50,242.27,238.96,233.25,227.89,229.67,233.13,236.42,240.69,244.96,246.64,242.08,240.07,244.75,250.10
Thurrock,37%,Suburban Traits,2,33%,39%,40%,40%,35%,38%,39%,39%,214.00,64,East of England,51.475,0.33,66843,"£5,458.00",£16.85,£18.93,232.68,227.45,223.54,216.69,210.17,209.71,211.31,212.46,214.00,216.80,216.63,210.90,207.72,211.22,214.89
Luton,35%,Ethnically Diverse Metropolitan Living,4,3%,4%,20%,20%,19%,19%,27%,27%,191.74,73,East of England,51.8783,-0.4147,213052,"£7,617.09",£15.34,£16.58,202.30,198.31,194.69,188.98,183.92,184.13,186.67,189.11,191.74,195.01,196.17,191.76,189.43,194.00,198.49
City of London,63%,London Cosmopolitan,1,3%,4%,20%,20%,33%,34%,41%,41%,426.31,7,London,51.8783,-0.4147,11262000,£644.00,£23.00,£23.00,317.61,342.96,363.98,368.73,368.92,381.94,398.42,409.03,426.31,438.04,442.68,431.76,426.35,439.40,452.70
Havering,45%,Suburban Traits,2,33%,39%,40%,40%,39%,42%,42%,42%,278.94,92,London,51.5768,0.1801,122854,"£10,234.58",£19.00,£19.00,313.60,304.28,296.40,286.21,276.69,274.45,274.58,276.29,278.94,281.41,281.11,273.79,269.47,271.85,275.31
Bromley,43%,Rural-Urban Fringe,3,17%,17%,20%,20%,30%,30%,32%,32%,264.45,78,London,51.408,-0.022,46844,"£6,110.17",£16.55,£20.82,298.92,290.28,282.39,272.15,262.70,260.87,261.24,262.59,264.45,266.67,266.74,260.10,256.38,260.38,264.66
Harrow,42%,Ethnically Diverse Metropolitan Living,4,3%,4%,20%,20%,22%,23%,31%,31%,255.96,76,London,51.5836,-0.3464,149246,"£12,616.23",£15.20,£15.70,252.55,249.59,247.50,241.94,236.81,240.14,245.96,251.05,255.96,261.48,264.49,259.82,257.54,263.13,268.88
Kensington and Chelsea,42%,London Cosmopolitan,1,3%,4%,20%,20%,23%,23%,31%,31%,251.59,18,London,51.5,-0.19,64681,"£3,941.38",£18.17,£19.35,231.79,232.34,232.36,229.96,227.71,232.26,238.08,244.43,251.59,258.76,262.98,260.01,259.73,266.90,274.56
Bexley,41%,Suburban Traits,2,33%,39%,40%,40%,37%,40%,41%,41%,247.17,59,London,51.4594,0.1097,41000,"£6,532.00",£18.84,£18.59,278.08,270.29,263.14,253.44,244.56,242.83,243.72,245.08,247.17,250.02,250.44,244.10,240.70,244.52,248.89
Richmond upon Thames,41%,Rural-Urban Fringe,3,17%,17%,20%,20%,29%,29%,31%,31%,246.80,19,London,51.449,-0.337,62148,"£4,909.00",£19.44,£19.78,253.48,249.43,245.73,239.47,233.89,235.31,238.66,242.88,246.80,250.79,252.03,247.39,245.76,251.93,258.34
Sutton,40%,Suburban Traits,2,33%,39%,40%,40%,36%,39%,40%,40%,235.03,51,London,51.3656,-0.1963,41483,"£14,622.00",£19.15,£20.05,251.75,245.83,241.62,234.48,228.02,228.08,230.41,232.41,235.03,238.40,239.61,234.25,231.41,235.51,241.07
Barnet,38%,Ethnically Diverse Metropolitan Living,4,3%,4%,20%,20%,21%,21%,29%,29%,224.01,98,London,51.6444,-0.1997,76506,"£15,050.65",£18.61,£18.46,232.40,227.76,224.02,217.70,212.27,213.52,216.71,219.91,224.01,228.09,229.77,225.62,223.83,228.47,233.69
Croydon,37%,Ethnically Diverse Metropolitan Living,4,3%,4%,20%,20%,20%,21%,29%,29%,213.34,144,London,51.3727,-0.1099,192064,"£11,358.00",£17.33,£18.75,217.50,214.06,210.63,205.22,200.29,202.35,206.03,209.48,213.34,218.23,220.83,216.84,215.44,221.92,229.08
Hillingdon,36%,Ethnically Diverse Metropolitan Living,4,3%,4%,20%,20%,19%,20%,28%,28%,205.30,73,London,51.5127,-0.4211,83564,"£9,145.21",£17.17,£17.24,215.13,209.88,206.31,200.36,195.02,196.08,199.07,201.98,205.30,208.94,210.22,205.87,203.81,208.46,212.94
Ealing,36%,Ethnically Diverse Metropolitan Living,4,3%,4%,20%,20%,19%,20%,28%,28%,204.74,82,London,51.5175,-0.2988,85014,"£10,450.31",£14.99,£15.00,195.36,194.07,193.07,189.98,187.22,190.56,195.37,199.97,204.74,209.98,212.68,209.22,208.02,213.60,219.36
Kingston upon Thames,36%,University Towns and Cities,4,6%,9%,20%,20%,21%,22%,28%,28%,203.72,47,London,51.394,-0.307,45132,"£5,067.00",£0.00,£17.25,215.59,210.46,206.81,201.45,196.40,196.86,198.52,201.48,203.72,207.47,208.21,203.83,201.86,205.65,209.85
Enfield,36%,Ethnically Diverse Metropolitan Living,4,3%,4%,20%,20%,19%,20%,28%,28%,201.12,111,London,51.6154,-0.0708,82472,£672.85,£16.00,£16.00,212.92,207.99,203.93,197.91,192.47,192.62,195.20,197.84,201.12,204.61,206.49,202.57,201.13,205.37,210.94
Brent,35%,Ethnically Diverse Metropolitan Living,4,3%,4%,20%,20%,19%,20%,27%,27%,194.83,83,London,51.5528,-0.2979,102856,"£7,462.92",£16.50,£17.12,183.43,182.00,180.89,177.58,174.55,178.09,183.45,188.43,194.83,201.28,205.14,202.23,201.34,207.00,213.17
Hounslow,34%,Ethnically Diverse Metropolitan Living,4,3%,4%,20%,20%,18%,19%,27%,27%,189.32,67,London,51.4668,-0.375,103337,"£5,001.00",£18.68,£19.18,185.94,184.19,182.31,178.46,175.01,177.31,180.95,185.14,189.32,193.97,196.05,192.50,191.02,195.81,200.69
Redbridge,34%,Ethnically Diverse Metropolitan Living,4,3%,4%,20%,20%,18%,19%,27%,27%,186.95,78,London,51.5575,0.0858,168168,"£11,871.00",£14.88,£16.05,200.98,195.84,191.19,185.03,179.53,179.93,181.82,184.23,186.95,189.69,190.88,186.51,184.01,187.19,190.80
Merton,34%,Ethnically Diverse Metropolitan Living,4,3%,4%,20%,20%,18%,19%,27%,27%,186.44,56,London,51.4009,-0.1517,63393,"£5,729.46",£17.31,£20.91,196.21,191.97,188.20,182.60,177.43,177.97,180.71,183.68,186.44,189.36,190.67,186.67,184.69,189.12,193.94
Westminster,34%,London Cosmopolitan,1,3%,4%,20%,20%,18%,19%,27%,27%,183.76,20,London,51.4947,-0.1353,255324,"£11,777.34",£18.17,£18.61,180.59,178.17,176.22,172.51,169.39,171.86,176.03,179.74,183.76,188.03,190.51,187.51,186.63,191.33,196.74
Camden,33%,London Cosmopolitan,1,3%,4%,20%,20%,18%,19%,26%,26%,177.32,44,London,51.5204,-0.1136,13023,"£11,674.76",£18.10,£18.37,176.22,173.24,171.26,167.55,164.36,166.31,170.02,173.37,177.32,181.43,183.12,180.19,179.16,183.27,187.79
Hammersmith and Fulham,31%,London Cosmopolitan,1,3%,4%,20%,20%,17%,18%,25%,25%,160.10,40,London,51.4928,-0.2229,95996,"£7,447.36",£17.68,£17.86,154.69,153.23,152.25,149.61,147.35,149.38,152.64,155.68,160.10,163.77,166.43,163.96,163.19,167.83,173.00
Waltham Forest,31%,Ethnically Diverse Metropolitan Living,4,3%,4%,20%,20%,17%,17%,25%,25%,158.26,52,London,51.584,-0.021,109424,"£6,628.00",£16.00,£16.00,164.70,160.92,158.04,153.58,149.66,150.66,152.81,155.43,158.26,162.18,163.84,160.53,158.85,162.45,166.52
Greenwich,30%,Ethnically Diverse Metropolitan Living,4,3%,4%,20%,20%,16%,17%,25%,25%,151.40,85,London,51.451,0.052,48964,"£14,005.91",£17.74,£18.83,164.64,159.58,155.47,150.15,145.50,145.66,147.36,149.01,151.40,154.52,155.82,152.66,151.47,154.86,158.60
Haringey,29%,London Cosmopolitan,1,3%,4%,20%,20%,16%,16%,24%,24%,142.39,50,London,51.5975,-0.0681,129237,"£8,345.08",£15.78,£17.88,145.78,142.79,140.50,136.49,132.91,134.28,136.63,139.52,142.39,145.78,148.04,145.37,144.25,148.43,153.05
Barking and Dagenham,28%,Ethnically Diverse Metropolitan Living,4,3%,4%,20%,20%,15%,16%,24%,24%,137.15,118,London,51.54,0.08,59068,"£5,248.01",£16.00,£17.00,161.16,154.43,148.97,142.29,136.38,135.09,135.32,136.11,137.15,139.17,139.46,135.76,133.72,136.50,139.69
Wandsworth,27%,London Cosmopolitan,1,3%,4%,20%,20%,15%,16%,24%,24%,131.00,37,London,51.455,-0.192,61594,"£6,808.60",£17.02,£17.31,136.94,133.74,131.01,127.31,124.16,124.86,127.03,128.97,131.00,133.40,134.69,132.28,131.38,134.23,137.80
Lewisham,27%,Ethnically Diverse Metropolitan Living,4,3%,4%,20%,20%,15%,16%,24%,24%,130.73,67,London,51.4452,-0.0207,44905,"£8,797.70",£18.00,£18.80,143.32,138.11,134.00,129.00,124.60,124.34,126.06,128.30,130.73,133.38,134.64,131.82,130.77,134.96,139.51
Islington,26%,London Cosmopolitan,1,3%,4%,20%,20%,15%,15%,23%,23%,119.27,37,London,51.544,-0.1027,206125,"£11,575.07",£20.11,£18.40,124.76,121.22,118.42,114.92,111.94,112.56,114.95,117.12,119.27,122.29,123.78,121.70,121.07,124.86,128.86
Southwark,26%,London Cosmopolitan,1,3%,4%,20%,20%,15%,15%,23%,23%,118.24,47,London,51.544,-0.1027,#N/A,"£13,906.19",£17.60,£18.43,117.96,115.44,113.08,109.89,107.16,108.45,111.14,114.32,118.24,122.29,125.03,123.48,123.60,127.79,132.80
Lambeth,25%,London Cosmopolitan,1,3%,4%,20%,20%,14%,15%,23%,23%,114.98,54,London,51.49,-0.119,78536,"£18,803.75",£17.67,£17.82,114.54,112.00,110.47,107.55,105.04,106.31,108.96,111.73,114.98,118.30,120.80,119.39,119.40,123.64,128.28
Newham,25%,Ethnically Diverse Metropolitan Living,4,3%,4%,20%,20%,14%,15%,23%,23%,113.88,75,London,51.5323,0.0554,76186,"£16,455.89",£18.72,£19.08,108.77,107.15,105.84,103.50,101.55,103.31,106.73,110.38,113.88,117.62,120.11,118.61,118.45,121.93,125.94
Hackney,24%,London Cosmopolitan,1,3%,4%,20%,20%,14%,14%,22%,22%,105.48,42,London,51.5414,-0.0266,11734,#N/A,£18.72,£19.08,109.04,106.68,104.51,101.15,98.28,99.40,101.57,103.50,105.48,108.25,109.58,107.60,106.96,110.11,113.45
Tower Hamlets,22%,London Cosmopolitan,1,3%,4%,20%,20%,13%,13%,21%,21%,88.89,54,London,51.5152,-0.0462,16238,"£16,447.00",£19.80,£19.80,88.66,86.75,85.48,83.18,81.22,82.29,84.28,86.50,88.89,91.33,92.68,91.17,90.68,93.17,95.98
Northumberland,65%,English and Welsh Countryside,1,28%,26%,30%,20%,47%,45%,47%,42%,442.68,45,North East,55.126,-1.514,37339,"£19,896.00",£17.81,£19.85,420.16,417.76,415.65,408.90,402.25,408.61,419.02,430.36,442.68,456.19,462.97,455.69,453.84,466.77,480.29
Redcar and Cleveland,58%,"Services, Manufacturing and Mining Legacy",5,100%,100%,100%,100%,79%,79%,79%,79%,387.49,18,North East,54.5828,-0.9732,5958,"£8,653.00",£16.28,£16.63,388.37,383.92,379.65,371.83,363.96,366.30,372.43,378.90,387.49,396.93,400.90,392.32,388.15,397.90,409.12
Darlington,53%,"Services, Manufacturing and Mining Legacy",5,100%,100%,100%,100%,76%,76%,76%,76%,344.89,20,North East,54.527,-1.5526,92363,"£1,885.00",£15.36,£15.89,341.89,338.00,335.29,328.22,321.36,323.83,330.18,336.32,344.89,353.23,356.27,350.90,349.48,359.28,369.53
County Durham,53%,"Services, Manufacturing and Mining Legacy",5,100%,100%,100%,100%,76%,76%,76%,76%,342.13,61,North East,54.527,-1.5526,118236,"£21,830.00",£15.60,£17.49,345.52,340.58,336.58,328.42,321.16,324.10,329.55,335.84,342.13,349.16,350.44,342.46,338.94,346.65,354.66
South Tyneside,53%,"Services, Manufacturing and Mining Legacy",5,100%,100%,100%,100%,76%,76%,76%,76%,341.64,17,North East,54.995,-1.43,75337,"£8,484.00",£14.95,£15.80,338.69,333.67,329.82,322.17,315.12,318.19,324.75,332.61,341.64,351.07,355.72,349.50,347.41,356.49,366.82
North Tyneside,52%,"Services, Manufacturing and Mining Legacy",5,100%,100%,100%,100%,76%,76%,76%,76%,335.74,31,North East,55.0456,-1.4443,36623,"£7,909.02",£17.12,£17.16,335.27,330.87,327.15,319.56,312.53,315.36,320.63,327.46,335.74,342.94,345.76,339.03,336.51,344.84,354.62
Hartlepool,50%,"Services, Manufacturing and Mining Legacy",5,100%,100%,100%,100%,75%,75%,75%,75%,320.75,12,North East,54.69,-1.21,88855,"£3,848.00",£18.11,£17.98,325.87,321.68,316.91,308.64,300.85,303.74,308.08,314.62,320.75,328.93,331.67,325.42,323.76,333.72,343.29
Sunderland,50%,"Services, Manufacturing and Mining Legacy",5,100%,100%,100%,100%,75%,75%,75%,75%,320.68,42,North East,54.8679,-1.3698,10484,"£10,233.00",£16.21,£15.48,319.44,314.59,310.74,303.24,296.39,299.26,305.45,312.97,320.68,328.36,331.13,324.46,321.21,329.07,336.65
Gateshead,48%,"Services, Manufacturing and Mining Legacy",5,100%,100%,100%,100%,74%,74%,74%,74%,307.41,41,North East,54.95,-1.6,120046,"£12,006.00",£16.20,£17.00,322.36,315.08,309.10,300.39,292.57,293.59,296.47,301.61,307.41,312.52,314.05,306.97,303.90,310.52,317.81
Stockton-on-Tees,48%,"Services, Manufacturing and Mining Legacy",5,100%,100%,100%,100%,74%,74%,74%,74%,304.23,38,North East,54.61,-1.27,35165,"£4,898.00",£15.42,£15.71,299.93,296.44,294.31,288.12,282.26,284.83,290.11,297.14,304.23,310.79,313.66,307.86,305.86,314.30,322.92
Middlesbrough,44%,Manufacturing Traits,4,64%,74%,80%,80%,54%,59%,62%,62%,266.58,21,North East,54.5492,-1.1817,10714,"£4,553.00",£16.46,£16.95,268.44,263.09,259.58,252.89,246.84,249.60,254.29,260.15,266.58,272.45,274.57,268.75,266.45,273.82,279.91
Newcastle upon Tyne,38%,Larger Towns and Cities,4,19%,26%,20%,20%,29%,32%,29%,29%,219.14,46,North East,55.007,-1.623,23620,"£13,704.60",£16.17,£16.28,225.29,220.33,216.32,210.45,205.46,207.00,211.14,214.46,219.14,223.19,223.96,218.77,216.15,220.64,224.86
Cumbria,63%,"Services, Manufacturing and Mining Legacy",5,100%,100%,100%,100%,81%,81%,81%,81%,425.37,67,North West,54.891,-2.944,75399,"£12,461.38",£18.52,£18.64,419.24,415.26,411.71,403.56,395.68,399.63,407.31,416.00,425.37,435.76,440.45,432.45,429.42,441.09,452.60
Sefton,60%,"Services, Manufacturing and Mining Legacy",5,100%,100%,100%,100%,80%,80%,80%,80%,405.27,53,North West,53.4872,-3.0343,51789,"£11,780.00",£17.14,£19.00,405.02,399.58,394.61,385.93,377.85,381.26,388.63,396.42,405.27,413.71,417.75,410.25,408.22,418.24,428.53
Cheshire East,60%,Country Living,3,12%,13%,20%,20%,36%,36%,40%,40%,400.39,85,North West,53.099,-2.44,73241,"£10,987.89",£17.40,£17.40,394.91,392.10,389.75,382.34,375.15,378.79,385.61,392.48,400.39,408.99,412.81,406.17,404.49,415.32,426.64
Wirral,56%,"Services, Manufacturing and Mining Legacy",5,100%,100%,100%,100%,78%,78%,78%,78%,370.79,49,North West,53.35,-3.003,57336,"£13,553.00",£17.64,£18.62,375.74,370.53,366.57,357.91,349.87,352.35,357.22,363.63,370.79,378.29,381.61,374.37,371.18,380.07,389.51
Cheshire West and Chester,55%,Town Living,4,63%,65%,80%,70%,59%,60%,67%,62%,362.20,74,North West,53.19,-2.89,87507,"£14,635.00",£16.43,£17.76,364.69,359.79,356.62,349.07,341.83,343.85,349.44,355.76,362.20,368.99,371.88,365.00,362.30,370.72,380.27
Lancashire,53%,Town Living,4,63%,65%,80%,70%,58%,59%,67%,62%,349.25,242,North West,53.789,-2.248,82002,"£46,942.97",£15.95,£18.37,351.28,346.77,343.29,335.76,328.81,331.37,336.60,342.97,349.25,355.41,358.16,351.07,348.33,356.92,365.58
St. Helens,52%,"Services, Manufacturing and Mining Legacy",5,100%,100%,100%,100%,76%,76%,76%,76%,336.43,40,North West,53.45,-2.633,22114,"£9,985.00",£16.81,£17.80,349.25,343.98,339.67,331.29,322.97,323.67,327.63,332.27,336.43,341.42,342.46,334.71,330.80,337.32,343.23
Stockport,51%,Town Living,4,63%,65%,80%,70%,57%,58%,66%,61%,329.54,64,North West,53.4083,-2.1494,295200,"£12,069.43",£17.56,£18.08,344.28,338.52,333.57,325.02,316.67,317.59,321.19,325.10,329.54,334.41,335.99,328.30,324.20,330.39,336.59
Blackpool,51%,"Services, Manufacturing and Mining Legacy",5,100%,100%,100%,100%,75%,76%,76%,76%,328.99,26,North West,53.8142,-3.0503,139305,"£7,352.38",£17.49,£17.85,352.37,344.38,337.18,326.13,315.83,315.36,320.40,324.24,328.99,334.68,335.99,328.04,323.78,331.45,339.06
Halton,49%,"Services, Manufacturing and Mining Legacy",5,100%,100%,100%,100%,74%,74%,74%,74%,311.92,10,North West,53.8142,-3.0503,#N/A,"£2,795.00",£15.80,£13.00,301.88,299.71,297.39,292.16,287.12,291.07,298.64,304.67,311.92,320.02,322.37,316.21,313.99,323.30,330.68
Wigan,49%,"Services, Manufacturing and Mining Legacy",5,100%,100%,100%,100%,74%,74%,74%,74%,310.02,36,North West,53.5355,-2.5658,25001,"£7,619.00",£16.04,£16.40,318.41,313.92,310.00,302.75,295.79,296.89,300.22,304.60,310.02,315.39,317.04,310.46,307.87,315.56,323.09
Warrington,48%,Town Living,4,63%,65%,80%,70%,55%,57%,64%,59%,303.79,51,North West,53.39,-2.59,165456,"£9,084.00",£19.15,£20.46,305.00,301.56,298.67,292.37,286.33,288.87,293.44,298.27,303.79,310.78,313.08,307.45,305.64,313.88,323.59
Bury,47%,Manufacturing Traits,4,64%,74%,80%,80%,56%,61%,64%,64%,297.28,41,North West,53.5333,-2.2833,31693,"£6,088.70",£16.13,£16.32,310.14,305.67,301.77,293.64,285.99,285.76,289.51,293.15,297.28,302.77,304.84,298.17,294.86,301.45,308.16
Tameside,46%,Manufacturing Traits,4,64%,74%,80%,80%,55%,60%,63%,63%,290.59,27,North West,53.4897,-2.0952,45198,"£4,478.24",£17.79,£18.00,297.75,294.13,290.27,282.83,275.63,276.47,280.31,285.31,290.59,296.24,297.40,291.32,289.36,296.75,303.98
Knowsley,46%,"Services, Manufacturing and Mining Legacy",5,100%,100%,100%,100%,73%,73%,73%,73%,288.55,19,North West,53.48,-2.89,40472,"£4,864.00",£15.00,£16.00,286.97,281.40,277.77,270.75,264.60,267.49,272.26,280.54,288.55,296.28,300.40,294.84,293.37,303.12,311.37
Trafford,45%,Suburban Traits,2,33%,39%,40%,40%,39%,42%,43%,43%,279.90,49,North West,53.424,-2.322,134022,"£10,260.04",£16.55,£17.68,296.35,291.39,286.01,277.78,270.01,270.44,272.84,275.79,279.90,284.00,284.73,278.04,274.54,280.58,287.27
Bolton,45%,Manufacturing Traits,4,64%,74%,80%,80%,54%,59%,62%,62%,277.64,59,North West,53.5452,-2.3999,26939,"£6,288.00",£17.10,£17.44,291.45,286.13,281.61,274.05,266.75,267.58,269.95,273.74,277.64,282.14,282.91,276.26,272.73,278.20,283.16
Rochdale,44%,Manufacturing Traits,4,64%,74%,80%,80%,54%,59%,62%,62%,272.17,46,North West,53.6136,-2.161,110194,"£2,466.00",£17.10,£17.00,276.72,272.66,269.57,263.02,256.80,258.57,262.65,267.01,272.17,277.11,279.15,273.08,270.14,275.70,281.41
Oldham,43%,Manufacturing Traits,4,64%,74%,80%,80%,53%,58%,61%,61%,258.35,48,North West,53.566,-2.121,21284,"£8,871.00",£16.34,£16.75,276.18,270.61,265.32,257.42,250.23,250.15,252.91,255.54,258.35,262.36,263.52,257.38,254.35,258.90,262.82
Blackburn with Darwen,40%,Manufacturing Traits,4,64%,74%,80%,80%,52%,57%,60%,60%,236.24,25,North West,53.748,-2.482,117963,"£5,326.00",£14.00,£16.00,244.01,239.57,236.28,229.16,223.09,225.22,229.05,232.74,236.24,240.38,242.30,237.44,235.14,240.55,246.00
Liverpool,38%,Larger Towns and Cities,4,19%,26%,20%,20%,29%,32%,29%,29%,217.08,84,North West,53.4075,-2.9919,864122,"£20,275.01",£16.08,£16.70,228.05,222.71,218.27,211.70,206.00,206.82,209.98,213.45,217.08,220.40,221.37,216.01,213.13,217.79,222.11
Salford,37%,Manufacturing Traits,4,64%,74%,80%,80%,51%,55%,59%,59%,212.48,44,North West,53.483,-2.2931,103886,"£8,253.25",£15.50,£15.96,236.20,228.97,223.73,215.80,208.55,207.02,207.61,210.13,212.48,215.55,215.55,209.81,206.87,210.88,214.73
Manchester,27%,University Towns and Cities,4,6%,9%,20%,20%,17%,18%,24%,24%,128.95,106,North West,53.4794,-2.2453,2705000,"£17,587.50",£16.41,£16.82,140.51,136.29,132.75,127.90,123.72,123.89,125.29,127.25,128.95,130.78,131.08,127.80,126.12,128.89,131.54
Isle of Wight,73%,Remoter Coastal Living,1,62%,48%,60%,40%,68%,61%,67%,57%,514.86,40,South East,50.7271,-1.1618,24847,"£6,632.29",£19.28,£19.68,505.95,500.34,496.41,487.22,478.57,483.70,494.11,503.95,514.86,527.19,532.71,522.52,518.04,530.32,543.92
East Sussex,66%,Remoter Coastal Living,1,62%,48%,60%,40%,64%,57%,63%,53%,455.44,96,South East,50.85,0.57,91053,"£19,886.17",£20.67,£21.12,465.56,458.62,452.63,441.95,432.05,434.71,441.02,448.02,455.44,464.03,467.00,457.43,453.39,463.79,476.03
West Sussex,59%,Town Living,4,63%,65%,80%,70%,61%,62%,69%,64%,392.91,177,South East,50.8094,-0.5409,58357,"£30,523.49",£21.87,£22.25,402.75,396.47,391.44,382.12,373.42,375.66,380.82,386.35,392.91,400.21,402.64,394.92,391.80,400.85,410.59
Hampshire,56%,Town Living,4,63%,65%,80%,70%,59%,61%,68%,63%,370.88,291,South East,51.2667,-1.0876,107355,"£61,779.40",£21.00,£22.50,367.80,363.97,360.88,353.80,347.13,350.33,356.34,363.45,370.88,378.99,382.57,376.23,374.25,383.45,393.87
Kent,52%,Thriving Rural,3,25%,30%,30%,20%,39%,41%,41%,36%,336.22,349,South East,51.272,0.529,107627,"£51,012.00",£20.26,£22.09,347.48,341.92,337.19,328.83,321.04,322.64,326.65,331.30,336.22,341.87,343.46,336.10,332.63,339.93,347.53
West Berkshire,51%,Thriving Rural,3,25%,30%,30%,20%,38%,41%,40%,35%,327.77,32,South East,51.401,-1.323,41075,"£6,896.95",£20.88,£22.01,311.96,310.78,309.89,305.16,300.65,305.27,312.67,319.88,327.77,336.16,339.68,334.40,333.08,342.15,352.16
Buckinghamshire,49%,Thriving Rural,3,25%,30%,30%,20%,37%,40%,40%,35%,314.81,115,South East,51.6287,-0.7482,120256,"£12,691.95",£21.76,£21.17,320.63,316.30,312.89,305.67,298.79,300.98,304.90,309.80,314.81,320.47,322.44,316.05,313.30,319.68,326.60
Surrey,49%,Thriving Rural,3,25%,30%,30%,20%,37%,40%,39%,34%,309.31,287,South East,51.3868,-0.4133,66566,"£40,141.44",£17.19,£16.89,320.90,315.63,311.09,303.19,295.90,297.23,300.82,304.79,309.31,314.25,315.88,309.80,307.30,313.95,321.40
Windsor and Maidenhead,48%,Rural-Urban Fringe,3,17%,17%,20%,20%,33%,33%,34%,34%,306.78,22,South East,51.3868,-0.4133,#N/A,"£5,395.00",£17.95,£17.95,315.67,311.91,308.16,301.20,294.61,295.84,298.41,301.53,306.78,311.31,312.72,307.06,305.11,312.45,320.67
Oxfordshire,48%,University Towns and Cities,4,6%,9%,20%,20%,27%,28%,34%,34%,304.77,159,South East,51.7519,-1.2578,152000,"£17,811.00",£24.59,£24.48,299.50,296.68,294.72,289.37,284.61,287.77,293.04,298.77,304.77,311.25,314.64,309.41,307.69,315.30,323.71
Wokingham,47%,Thriving Rural,3,25%,30%,30%,20%,36%,39%,39%,34%,295.92,48,South East,51.433,-0.933,32036,"£6,320.93",£18.80,£19.08,300.23,296.54,292.47,286.01,279.70,281.54,285.59,290.09,295.92,300.32,302.29,296.53,294.33,300.48,307.43
Medway,42%,Suburban Traits,2,33%,39%,40%,40%,37%,40%,41%,41%,250.99,77,South East,51.37,0.52,76792,"£8,048.21",£16.72,£16.88,260.49,256.15,252.46,245.73,239.28,240.03,242.91,246.95,250.99,255.57,256.69,250.87,248.07,253.01,258.85
Bracknell Forest,40%,Rural-Urban Fringe,3,17%,17%,20%,20%,28%,29%,30%,30%,234.62,22,South East,51.37,0.52,#N/A,"£3,204.00",£18.26,£18.87,228.82,226.28,224.72,220.28,216.06,218.68,224.08,229.09,234.62,239.97,243.48,239.84,239.22,246.35,253.67
Milton Keynes,39%,Suburban Traits,2,33%,39%,40%,40%,36%,39%,40%,40%,230.03,126,South East,51.994,-0.732,37520,"£6,390.24",£18.03,£19.35,220.25,219.01,218.14,214.41,210.99,214.70,219.86,224.83,230.03,235.88,238.67,234.61,233.12,238.45,244.47
Portsmouth,37%,Larger Towns and Cities,4,19%,26%,20%,20%,28%,31%,28%,28%,211.49,38,South East,50.8058,-1.0872,855679,"£10,176.53",£17.00,£18.55,220.56,215.90,212.32,206.32,200.92,201.86,204.45,207.63,211.49,215.57,217.18,212.94,211.47,216.13,221.66
Southampton,35%,Larger Towns and Cities,4,19%,26%,20%,20%,27%,30%,27%,27%,193.56,70,South East,50.9025,-1.4042,855569,"£9,590.00",£18.32,£19.04,204.60,199.33,195.57,189.84,184.90,185.56,187.64,190.13,193.56,196.31,196.51,191.46,188.69,192.15,195.90
Reading,34%,University Towns and Cities,4,6%,9%,20%,20%,20%,22%,27%,27%,183.99,48,South East,51.467,-0.973,23885,-£930.00,£19.00,£19.00,189.99,185.90,183.40,178.70,174.59,175.79,178.42,181.08,183.99,186.81,188.03,184.34,182.72,186.39,190.85
Brighton and Hove,34%,University Towns and Cities,4,6%,9%,20%,20%,20%,21%,27%,27%,183.88,52,South East,50.8352,-0.1758,91900,"£9,145.00",£18.00,£19.00,200.38,194.12,189.30,183.46,178.28,178.45,179.74,181.44,183.88,186.26,187.34,183.31,181.23,185.41,190.35
Slough,31%,Ethnically Diverse Metropolitan Living,4,3%,4%,20%,20%,17%,18%,25%,25%,161.18,46,South East,51.5084,-0.5881,119070,"£4,591.00",£19.00,£18.00,160.44,158.59,156.59,152.83,149.36,151.90,154.62,157.74,161.18,164.99,166.16,162.72,161.37,165.99,169.75
Dorset,77%,Remoter Coastal Living,1,62%,48%,60%,40%,69%,62%,68%,58%,545.60,73,South West,50.81,-1.9,17650,"£14,427.00",£21.00,£22.75,543.11,538.15,533.73,522.23,511.91,516.34,524.44,534.35,545.60,556.43,560.48,549.58,545.22,559.17,573.25
Torbay,69%,Remoter Coastal Living,1,62%,48%,60%,40%,65%,58%,64%,54%,476.93,29,South West,50.81,-1.9,142049,"£4,330.94",£20.48,£20.92,483.28,477.78,472.22,460.47,449.89,452.76,460.55,468.05,476.93,485.84,489.31,479.20,474.16,485.46,496.71
Somerset,64%,Remoter Coastal Living,1,62%,48%,60%,40%,63%,56%,62%,52%,438.93,91,South West,51.019,-3.1,60479,"£14,575.90",£19.68,£22.00,434.34,430.83,427.83,419.29,411.47,415.49,422.33,430.35,438.93,447.83,451.17,442.84,439.98,450.53,461.85
Devon,64%,Remoter Coastal Living,1,62%,48%,60%,40%,63%,56%,62%,52%,438.32,144,South West,50.4353,-3.5625,64410,"£22,823.00",£23.00,£23.00,451.49,444.52,438.63,427.65,417.80,419.97,425.34,431.54,438.32,445.66,447.46,437.29,432.34,441.24,450.57
Isles of Scilly,64%,Remoter Coastal Living,1,62%,48%,60%,40%,63%,56%,62%,52%,437.18,1,South West,50.4353,-3.5625,#N/A,£90.97,£0.00,£0.00,437.59,435.82,432.76,422.52,407.43,413.82,413.73,427.84,437.18,451.13,448.86,441.06,437.13,440.11,446.99
Cornwall,63%,Remoter Coastal Living,1,62%,48%,60%,40%,63%,56%,62%,52%,430.87,112,South West,50.213,-5.3,22074,"£25,203.57",£20.29,£21.03,442.35,435.54,429.53,418.87,408.97,411.11,416.77,423.58,430.87,438.43,440.11,429.39,423.80,431.89,440.78
North Somerset,61%,English and Welsh Countryside,1,28%,26%,30%,20%,45%,44%,46%,41%,415.88,33,South West,51.346,-2.977,76143,"£6,289.73",£20.37,£21.12,429.59,423.43,418.41,408.20,398.61,400.29,405.31,410.27,415.88,420.77,421.94,412.27,407.13,414.01,422.60
Wiltshire,56%,Country Living,3,12%,13%,20%,20%,34%,35%,38%,38%,373.32,113,South West,51.07,-1.79,45477,"£19,397.00",£21.39,£21.39,366.19,363.36,361.57,353.55,344.84,349.39,356.56,364.45,373.32,382.92,387.82,382.46,381.75,392.70,404.19
Gloucestershire,55%,Manufacturing Traits,4,64%,74%,80%,80%,60%,65%,68%,68%,365.37,163,South West,51.8644,-2.2444,145563,"£9,736.00",£29.39,£23.85,363.80,360.07,356.67,349.08,342.04,345.76,351.82,358.13,365.37,373.12,376.75,370.01,367.53,376.72,386.17
Bath and North East Somerset,47%,Larger Towns and Cities,4,19%,26%,20%,20%,33%,37%,34%,34%,298.48,24,South West,51.38,-2.36,94782,"£7,048.00",£23.92,£24.17,313.22,306.26,300.89,292.94,286.22,287.32,291.26,295.23,298.48,301.85,302.17,294.91,291.01,295.86,300.69
South Gloucestershire,47%,Town Living,4,63%,65%,80%,70%,55%,56%,64%,59%,298.11,65,South West,51.46,-2.505,160260,"£10,269.00",£21.17,£21.70,314.48,309.05,304.74,297.07,289.71,289.79,292.01,294.94,298.11,300.85,301.25,294.11,290.49,295.39,301.27
Plymouth,47%,Larger Towns and Cities,4,19%,26%,20%,20%,33%,37%,34%,34%,294.26,48,South West,50.3714,-4.1422,267918,"£8,208.00",£17.69,£18.00,297.86,293.14,289.28,282.80,277.05,278.69,283.21,289.52,294.26,299.83,301.57,295.23,292.13,297.15,302.08
Bournemouth,45%,Larger Towns and Cities,4,19%,26%,20%,20%,32%,36%,33%,33%,278.11,99,South West,50.72,-1.88,187503,"£16,477.07",£18.38,£19.54,293.41,286.54,281.12,273.89,267.45,267.99,270.79,274.79,278.11,281.82,282.94,276.97,273.99,279.70,285.65
Swindon,44%,Suburban Traits,2,33%,39%,40%,40%,38%,41%,42%,42%,268.44,43,South West,51.586,-1.762,22698,#N/A,£19.00,£19.54,257.00,254.99,253.80,249.81,246.16,249.95,255.53,261.95,268.44,276.45,281.31,277.84,277.43,286.16,296.17
Bristol,34%,Larger Towns and Cities,4,19%,26%,20%,20%,27%,30%,27%,27%,181.37,79,South West,51.4536,-2.5975,567111,"£15,093.00",£18.96,£19.32,203.84,197.39,191.99,185.20,179.21,178.47,179.18,180.06,181.37,182.78,181.91,176.79,173.57,175.61,177.71
Shropshire,64%,English and Welsh Countryside,1,28%,26%,30%,20%,46%,45%,47%,42%,435.04,85,West Midlands,52.969,-2.682,9781,"£19,806.63",£19.17,£19.75,423.58,421.07,418.58,411.18,404.51,409.50,417.86,426.29,435.04,444.89,449.78,442.90,441.44,454.22,467.78
Herefordshire,63%,English and Welsh Countryside,1,28%,26%,30%,20%,46%,44%,46%,41%,426.59,46,West Midlands,52.056,-2.716,63024,"£7,671.38",£19.95,£21.55,425.60,420.50,416.70,407.63,398.71,402.34,410.28,417.65,426.59,434.43,436.34,427.42,424.30,434.82,445.13
Worcestershire,58%,Town Living,4,63%,65%,80%,70%,60%,62%,69%,64%,388.65,120,West Midlands,52.1911,-2.2206,101891,"£8,011.86",£18.40,£18.65,389.05,385.83,382.77,375.32,368.11,370.75,376.39,382.12,388.65,395.14,397.35,389.12,385.05,392.88,401.65
Staffordshire,55%,Town Living,4,63%,65%,80%,70%,59%,60%,68%,63%,365.25,142,West Midlands,52.8019,-1.6367,75074,"£41,310.00",£17.64,£18.69,365.89,362.14,359.19,352.03,345.07,347.79,353.24,359.11,365.25,371.80,373.73,366.30,363.32,371.49,379.62
Solihull,54%,Town Living,4,63%,65%,80%,70%,58%,59%,67%,62%,350.42,54,West Midlands,52.413,-1.778,206674,"£8,164.65",£16.92,£18.32,373.90,367.56,361.42,351.68,342.55,342.10,343.80,346.33,350.42,355.28,356.12,347.77,343.22,350.15,355.79
Warwickshire,54%,Suburban Traits,2,33%,39%,40%,40%,43%,46%,47%,47%,350.22,113,West Midlands,52.523,-1.468,86552,"£20,535.97",£17.00,£18.50,356.08,351.88,348.65,341.30,334.05,335.83,340.07,345.25,350.22,355.84,357.43,350.09,346.86,353.56,360.93
Dudley,51%,"Services, Manufacturing and Mining Legacy",5,100%,100%,100%,100%,76%,76%,76%,76%,332.28,53,West Midlands,52.508,-2.089,79379,"£7,357.00",£16.32,£16.32,354.14,347.90,342.75,333.18,324.01,323.78,326.44,329.52,332.28,335.46,334.90,326.25,321.28,327.09,332.29
Telford and Wrekin,46%,Manufacturing Traits,4,64%,74%,80%,80%,55%,60%,63%,63%,283.40,56,West Midlands,52.7001,-2.5157,25554,"£8,309.40",£16.50,£17.27,281.85,279.83,277.42,272.19,267.29,270.64,274.96,278.27,283.40,288.94,290.93,285.07,282.61,289.10,296.19
Walsall,45%,Manufacturing Traits,4,64%,74%,80%,80%,55%,59%,63%,63%,279.54,75,West Midlands,52.58,-1.98,67594,"£9,516.00",£15.43,£16.00,309.35,301.76,295.67,285.90,276.63,275.17,276.28,277.52,279.54,281.25,280.28,272.66,268.44,273.08,277.31
Stoke-on-Trent,45%,Manufacturing Traits,4,64%,74%,80%,80%,54%,59%,62%,62%,275.00,71,West Midlands,52.9877,-2.1327,27214,"£12,775.00",£18.65,£18.65,285.94,280.76,276.56,269.09,262.30,263.42,267.17,271.38,275.00,278.55,279.31,272.60,269.29,274.52,278.81
Wolverhampton,43%,Manufacturing Traits,4,64%,74%,80%,80%,54%,58%,62%,62%,262.82,104,West Midlands,52.5833,-2.1333,250970,"£11,536.82",£15.56,£15.84,283.85,277.79,272.23,264.20,256.62,255.88,257.94,260.29,262.82,265.94,266.07,259.58,256.27,261.11,266.13
Sandwell,39%,Manufacturing Traits,4,64%,74%,80%,80%,52%,56%,60%,60%,229.37,88,West Midlands,52.519,-1.995,146386,"£16,320.00",£14.92,£15.16,258.59,251.00,244.07,235.04,226.85,226.07,226.46,227.94,229.37,231.62,230.91,224.74,221.26,225.05,228.76
Birmingham,35%,Ethnically Diverse Metropolitan Living,4,3%,4%,20%,20%,19%,19%,27%,27%,194.65,299,West Midlands,52.48,-1.9025,2919600,"£36,347.00",£15.38,£15.58,214.44,208.56,203.77,196.90,190.68,190.23,191.12,192.77,194.65,196.62,196.74,191.66,188.71,192.11,195.46
Coventry,34%,Larger Towns and Cities,4,19%,26%,20%,20%,27%,30%,27%,27%,192.01,110,West Midlands,52.4081,-1.5106,362690,"£17,713.00",£15.71,£16.16,224.31,215.86,208.77,200.25,192.69,191.20,191.41,191.48,192.01,193.00,191.67,185.87,182.34,184.08,186.23
East Riding of Yorkshire,67%,English and Welsh Countryside,1,28%,26%,30%,20%,48%,47%,49%,44%,465.01,58,Yorkshire and The Humber,54.0819,-0.1923,35264,"£12,865.00",£18.82,£18.58,456.99,453.11,449.36,440.64,432.28,437.21,446.03,454.94,465.01,474.24,478.15,469.00,465.53,478.06,491.35
North Yorkshire,64%,Remoter Coastal Living,1,62%,48%,60%,40%,63%,56%,62%,52%,438.15,164,Yorkshire and The Humber,53.9919,-1.5378,73576,"£14,558.21",£22.22,£22.00,423.35,419.83,417.81,410.70,404.04,408.97,418.56,428.01,438.15,449.10,454.91,447.97,446.36,459.15,472.85
North Lincolnshire,55%,Country Living,3,12%,13%,20%,20%,34%,34%,37%,37%,360.50,21,Yorkshire and The Humber,53.5809,-0.6502,79977,"£5,581.48",£16.96,£18.22,357.55,353.88,350.94,343.06,335.87,339.85,346.75,352.93,360.50,367.93,371.48,364.87,362.72,371.96,382.45
North East Lincolnshire,53%,"Services, Manufacturing and Mining Legacy",5,100%,100%,100%,100%,76%,76%,76%,76%,343.39,22,Yorkshire and The Humber,53.5533,-0.0215,38996,"£5,888.00",£15.24,£15.56,344.26,340.14,337.06,330.09,323.59,325.46,331.05,336.39,343.39,350.28,352.81,346.53,344.53,353.52,363.06
Rotherham,51%,"Services, Manufacturing and Mining Legacy",5,100%,100%,100%,100%,75%,75%,75%,75%,325.62,50,Yorkshire and The Humber,53.43,-1.357,109691,"£8,862.00",£16.56,£17.42,334.19,329.00,324.25,316.19,308.66,310.20,314.84,319.73,325.62,330.84,332.81,325.73,322.36,328.34,334.92
Doncaster,50%,"Services, Manufacturing and Mining Legacy",5,100%,100%,100%,100%,75%,75%,75%,75%,316.73,59,Yorkshire and The Humber,53.5352,-1.0522,14457,"£7,179.00",£17.20,£19.28,319.27,314.90,310.97,303.34,296.32,298.48,303.93,310.04,316.73,322.80,325.72,319.21,316.59,324.05,332.05
Barnsley,49%,"Services, Manufacturing and Mining Legacy",5,100%,100%,100%,100%,75%,75%,75%,75%,314.23,51,Yorkshire and The Humber,53.516,-1.4,15316,"£7,693.00",£18.06,£18.47,322.81,317.54,313.05,305.12,297.61,298.61,302.91,308.54,314.23,320.93,322.82,315.93,312.89,319.58,326.81
Wakefield,49%,"Services, Manufacturing and Mining Legacy",5,100%,100%,100%,100%,75%,75%,75%,75%,314.17,80,Yorkshire and The Humber,53.716,-1.356,40210,"£12,131.36",£16.43,£16.84,320.40,315.57,311.72,304.39,297.13,299.10,303.65,308.24,314.17,320.43,322.48,315.76,312.67,319.03,325.81
Calderdale,49%,Manufacturing Traits,4,64%,74%,80%,80%,57%,61%,65%,65%,312.78,47,Yorkshire and The Humber,53.7432,-1.8779,12351,"£8,772.85",£17.72,£18.57,310.55,306.51,303.60,297.29,290.93,293.22,299.65,306.03,312.78,319.72,322.62,316.58,314.09,322.19,330.54
Kirklees,46%,Manufacturing Traits,4,64%,74%,80%,80%,55%,60%,63%,63%,285.52,80,Yorkshire and The Humber,53.7167,-1.6356,80485,"£8,577.09",£19.44,£19.76,292.92,288.65,284.98,277.82,271.24,272.44,276.15,280.81,285.52,290.10,291.99,285.54,282.38,287.95,294.00
York,45%,Larger Towns and Cities,4,19%,26%,20%,20%,32%,36%,33%,33%,279.12,38,Yorkshire and The Humber,53.955,-1.126,22215,"£8,176.51",£41.32,£48.25,290.77,284.94,279.93,272.89,266.84,268.35,271.79,274.94,279.12,282.57,283.40,277.26,274.59,279.91,284.95
Bradford,42%,Manufacturing Traits,4,64%,74%,80%,80%,53%,58%,61%,61%,249.95,90,Yorkshire and The Humber,53.8,-1.75,293277,"£13,650.63",£17.14,£18.18,251.36,247.74,244.83,238.85,233.51,235.39,239.77,244.64,249.95,254.88,257.34,252.56,250.57,256.30,261.90
Sheffield,41%,Larger Towns and Cities,4,19%,26%,20%,20%,30%,33%,30%,30%,240.84,129,Yorkshire and The Humber,53.4429,-1.4698,31609,"£33,842.56",£17.60,£17.60,261.04,254.18,248.86,241.32,234.48,234.37,235.93,238.31,240.84,243.31,243.43,237.50,234.18,237.99,241.86
Leeds,40%,Larger Towns and Cities,4,19%,26%,20%,20%,30%,33%,30%,30%,235.40,203,Yorkshire and The Humber,53.7492,-1.6023,44440,"£29,107.00",£17.62,£17.92,250.81,245.07,240.37,233.67,227.54,227.53,229.69,232.71,235.40,238.20,237.90,231.91,228.55,232.20,236.21
Kingston upon Hull,38%,Manufacturing Traits,4,64%,74%,80%,80%,51%,56%,59%,59%,230.78,45,Yorkshire and The Humber,53.7492,-1.6023,29813,"£10,536.00",£17.57,£20.60,241.24,236.15,232.20,225.52,219.07,219.74,222.65,226.68,230.78,234.48,236.17,231.01,228.57,234.08,239.57
,,,,,,,,,,,,,,,,,,,,,,,,,,,,,,,,,,,
,,,,,,,,,,,,,,,,,,,,,,,,,,,,,,,,,,,
,,,,,,,,,,,,,,,,,,,,,,,,,,,,,,,,,,,
,,,,,,,,,,,,,,,,,,,,,,,,,,,,,,,,,,,
,,,,,,,,,,,,,,,,,,,,,,,,,,,,,,,,,,,
,,,,,,,,,,,,,,,,,,,,,,,,,,,,,,,,,,,
,,,,,,,,,,,,,,,,,,,,,,,,,,,,,,,,,,,
,,,,,,,,,,,,,,,,,,,,,,,,,,,,,,,,,,,
,,,,,,,,,,,,,,,,,,,,,,,,,,,,,,,,,,,
,,,,,,,,,,,,,,,,,,,,,,,,,,,,,,,,,,,
,,,,,,,,,,,,,,,,,,,,,,,,,,,,,,,,,,,
,,,,,,,,,,,,,,,,,,,,,,,,,,,,,,,,,,,
